[
    {"no": 1,"name": "John Doe","id": "123231","location": "City A","date": "2023-11-16","status": "In progress","phone": "555-1234"},
    {"no": 2,"name": "Jane Smith","id": "123232","location": "City B","date": "2023-11-14","status": "New","phone": "555-5678"},
    {"no": 3,"name": "Bob Johnson","id": "123233","location": "City C","date": "2023-11-15","status": "Resolve","phone": "555-9876"},
    {"no": 4,"name": "Alice Brown","id": "123234","location": "City D","date": "2023-11-16","status": "In progress","phone": "555-2468"},
    {"no": 5,"name": "Charlie Wilson","id": "123235","location": "City E","date": "2023-11-15","status": "New","phone": "555-1357"},
    {"no": 6,"name": "John Doe","id": "123236","location": "City F","date": "2023-11-14","status": "In progress","phone": "555-1234"},
    {"no": 7,"name": "Jane Smith","id": "123237","location": "City G","date": "2023-11-16","status": "New","phone": "555-5678"},
    {"no": 8,"name": "Bob Johnson","id": "123238","location": "City H","date": "2023-11-17","status": "Resolve","phone": "555-9876"},
    {"no": 9,"name": "Alice Brown","id": "123239","location": "City I","date": "2023-11-17","status": "In progress","phone": "555-2468"},
    {"no": 10,"name": "Charlie Wilson","id": "123240","location": "City J","date": "2023-11-16","status": "New","phone": "555-1357"},
    {"no": 11,"name": "Alice Brown","id": "123239","location": "City I","date": "2023-11-17","status": "In progress","phone": "555-2468"}
  ]
  